{
  "type": "FeatureCollection",
  "features": [
    {
      "type": "Feature",
      "id": "Transbordeur",
      "geometry": {
        "type": "Point",
        "coordinates": [
          4.86099519042548,
          45.78404790771527
        ]
      },
      "properties": {
        "title": "Transbordeur",
        "icon": "music",
        "description": "https://www.transbordeur.fr/accueil/",
        "city": "lyon"
      }
    },
    {
      "type": "Feature",
      "id": "Halle Tony Garnier",
      "geometry": {
        "type": "Point",
        "coordinates": [
          4.826150943299402,
          45.73090400519471
        ]
      },
      "properties": {
        "title": "Halle Tony Garnier",
        "icon": "music",
        "description": "https://halle-tony-garnier.com/",
        "city": "lyon"
      }
    },
    {
      "type": "Feature",
      "id": "Le G",
      "geometry": {
        "type": "Point",
        "coordinates": [
          4.832225171824509,
          45.76947847077514
        ]
      },
      "properties": {
        "title": "Le G",
        "icon": "music",
        "description": "",
        "city": "lyon"
      }
    },
    {
      "type": "Feature",
      "id": "Ninkasi Gerland",
      "geometry": {
        "type": "Point",
        "coordinates": [
          4.831664946733531,
          45.728262690091576
        ]
      },
      "properties": {
        "title": "Ninkasi Gerland",
        "icon": "music",
        "description": "https://www.ninkasi.fr/lieux/ninkasi-gerland/",
        "city": "lyon"
      }
    },
    {
      "type": "Feature",
      "id": "Marché Gare",
      "geometry": {
        "type": "Point",
        "coordinates": [
          4.823288269540693,
          45.74155495036607
        ]
      },
      "properties": {
        "title": "Marché Gare",
        "icon": "music",
        "description": "https://marchegare.fr/",
        "city": "lyon"
      }
    },
    {
      "type": "Feature",
      "id": "Le Périscope",
      "geometry": {
        "type": "Point",
        "coordinates": [
          4.827652324068464,
          45.74698143235602
        ]
      },
      "properties": {
        "title": "Le Périscope",
        "icon": "music",
        "description": "https://www.periscope-lyon.com/",
        "city": "lyon"
      }
    },
    {
      "type": "Feature",
      "id": "Le Sonic",
      "geometry": {
        "type": "Point",
        "coordinates": [
          4.820251712561378,
          45.75068799092529
        ]
      },
      "properties": {
        "title": "Le Sonic",
        "icon": "music",
        "description": "https://sonic-lyon.fr/",
        "city": "lyon"
      }
    },
    {
      "type": "Feature",
      "id": "Le Trokson",
      "geometry": {
        "type": "Point",
        "coordinates": [
          4.831532333405628,
          45.76973724802351
        ]
      },
      "properties": {
        "title": "Le Trokson",
        "icon": "music",
        "description": "https://www.trokson.com/",
        "city": "lyon"
      }
    },
    {
      "type": "Feature",
      "id": "Le Sucre",
      "geometry": {
        "type": "Point",
        "coordinates": [
          4.815308821695801,
          45.73661415788746
        ]
      },
      "properties": {
        "title": "Le Sucre",
        "icon": "music",
        "description": "https://le-sucre.eu/",
        "city": "lyon"
      }
    },
    {
      "type": "Feature",
      "id": "Toï Toï Le Zinc",
      "geometry": {
        "type": "Point",
        "coordinates": [
          4.877406759088646,
          45.77987153345585
        ]
      },
      "properties": {
        "title": "Toï Toï Le Zinc",
        "icon": "music",
        "description": "https://www.toitoilezinc.fr/agenda-salle-de-spectacle/",
        "city": "lyon"
      }
    },
    {
      "type": "Feature",
      "id": "Radiant-Bellevue",
      "geometry": {
        "type": "Point",
        "coordinates": [
          4.843125590861963,
          45.79788414153422
        ]
      },
      "properties": {
        "title": "Radiant-Bellevue",
        "icon": "music",
        "description": "http://radiant-bellevue.fr/",
        "city": "lyon"
      }
    },
    {
      "type": "Feature",
      "id": "À Thou Bout d'Chant",
      "geometry": {
        "type": "Point",
        "coordinates": [
          4.836544215343914,
          45.7705358011615
        ]
      },
      "properties": {
        "title": "À Thou Bout d'Chant",
        "icon": "music",
        "description": "https://athouboutdchant.com/",
        "city": "lyon"
      }
    },
    {
      "type": "Feature",
      "id": "Ancienne usine Fagor-Brandt",
      "geometry": {
        "type": "Point",
        "coordinates": [
          4.840202976719573,
          45.73125879157448
        ]
      },
      "properties": {
        "title": "Ancienne usine Fagor-Brandt",
        "icon": "music",
        "description": "",
        "city": "lyon"
      }
    },
    {
      "type": "Feature",
      "id": "Astrée Amphithéâtre",
      "geometry": {
        "type": "Point",
        "coordinates": [
          4.870564454581455,
          45.78366736641631
        ]
      },
      "properties": {
        "title": "Astrée Amphithéâtre",
        "icon": "music",
        "description": "https://theatre-astree.univ-lyon1.fr/",
        "city": "lyon"
      }
    },
    {
      "type": "Feature",
      "id": "Auditorium de Lyon",
      "geometry": {
        "type": "Point",
        "coordinates": [
          4.852376688478581,
          45.76183050086076
        ]
      },
      "properties": {
        "title": "Auditorium de Lyon",
        "icon": "music",
        "description": "https://www.auditorium-lyon.com/fr",
        "city": "lyon"
      }
    },
    {
      "type": "Feature",
      "id": "Bar des Capucins",
      "geometry": {
        "type": "Point",
        "coordinates": [
          4.8324692255381265,
          45.76888857886096
        ]
      },
      "properties": {
        "title": "Bar des Capucins",
        "icon": "music",
        "description": "",
        "city": "lyon"
      }
    },
    {
      "type": "Feature",
      "id": "Bizarre!",
      "geometry": {
        "type": "Point",
        "coordinates": [
          4.879373354577578,
          45.71377458937166
        ]
      },
      "properties": {
        "title": "Bizarre!",
        "icon": "music",
        "description": "https://www.lamachinerie-venissieux.fr/",
        "city": "lyon"
      }
    },
    {
      "type": "Feature",
      "id": "Bourse du Travail",
      "geometry": {
        "type": "Point",
        "coordinates": [
          4.848216365673355,
          45.75959719706098
        ]
      },
      "properties": {
        "title": "Bourse du Travail",
        "icon": "music",
        "description": "https://www.bourse-du-travail.com/",
        "city": "lyon"
      }
    },
    {
      "type": "Feature",
      "id": "Briscope",
      "geometry": {
        "type": "Point",
        "coordinates": [
          4.760768684656085,
          45.676394182325275
        ]
      },
      "properties": {
        "title": "Briscope",
        "icon": "music",
        "description": "https://brignais.com/briscope/",
        "city": "lyon"
      }
    },
    {
      "type": "Feature",
      "id": "La Rayonne",
      "geometry": {
        "type": "Point",
        "coordinates": [
          4.917004559049518,
          45.75671235983061
        ]
      },
      "properties": {
        "title": "La Rayonne",
        "icon": "music",
        "description": "https://larayonne.org/",
        "city": "lyon"
      }
    },
    {
      "type": "Feature",
      "id": "Comédie Odéon",
      "geometry": {
        "type": "Point",
        "coordinates": [
          4.836668566327821,
          45.76242589307075
        ]
      },
      "properties": {
        "title": "Comédie Odéon",
        "icon": "music",
        "description": "https://www.comedieodeon.com/",
        "city": "lyon"
      }
    },
    {
      "type": "Feature",
      "id": "Docks Circus",
      "geometry": {
        "type": "Point",
        "coordinates": [
          4.814858623384977,
          45.73833810382409
        ]
      },
      "properties": {
        "title": "Docks Circus",
        "icon": "music",
        "description": "https://www.dockscircus.fr/",
        "city": "lyon"
      }
    },
    {
      "type": "Feature",
      "id": "Epicerie Moderne",
      "geometry": {
        "type": "Point",
        "coordinates": [
          4.858404399962919,
          45.67369894892874
        ]
      },
      "properties": {
        "title": "Epicerie Moderne",
        "icon": "music",
        "description": "https://epiceriemoderne.com/",
        "city": "lyon"
      }
    },
    {
      "type": "Feature",
      "id": "Espace Albert Camus",
      "geometry": {
        "type": "Point",
        "coordinates": [
          4.919582121982419,
          45.72743250538055
        ]
      },
      "properties": {
        "title": "Espace Albert Camus",
        "icon": "music",
        "description": "https://pole-en-scenes.com/",
        "city": "lyon"
      }
    },
    {
      "type": "Feature",
      "id": "Espace Tonkin",
      "geometry": {
        "type": "Point",
        "coordinates": [
          4.86330530363784,
          45.77585500283178
        ]
      },
      "properties": {
        "title": "Espace Tonkin",
        "icon": "music",
        "description": "https://www.espacetonkin.fr/",
        "city": "lyon"
      }
    },
    {
      "type": "Feature",
      "id": "Groom",
      "geometry": {
        "type": "Point",
        "coordinates": [
          4.836937077519969,
          45.770615465336434
        ]
      },
      "properties": {
        "title": "Groom",
        "icon": "music",
        "description": "https://www.groomlyon.com/",
        "city": "lyon"
      }
    },
    {
      "type": "Feature",
      "id": "Groupama Stadium",
      "geometry": {
        "type": "Point",
        "coordinates": [
          4.982036878412183,
          45.765334091684046
        ]
      },
      "properties": {
        "title": "Groupama Stadium",
        "icon": "music",
        "description": "https://www.olvallee.fr/",
        "city": "lyon"
      }
    },
    {
      "type": "Feature",
      "id": "Grrrnd Zéro",
      "geometry": {
        "type": "Point",
        "coordinates": [
          4.9267125190686905,
          45.765862217056274
        ]
      },
      "properties": {
        "title": "Grrrnd Zéro",
        "icon": "music",
        "description": "https://www.grrrndzero.org/",
        "city": "lyon"
      }
    },
    {
      "type": "Feature",
      "id": "Hard Rock Café",
      "geometry": {
        "type": "Point",
        "coordinates": [
          4.837948560264358,
          45.763011898180885
        ]
      },
      "properties": {
        "title": "Hard Rock Café",
        "icon": "music",
        "description": "https://www.grrrndzero.org/",
        "city": "lyon"
      }
    },
    {
      "type": "Feature",
      "id": "Hot Club",
      "geometry": {
        "type": "Point",
        "coordinates": [
          4.831958880964752,
          45.76568284608088
        ]
      },
      "properties": {
        "title": "Hot Club",
        "icon": "music",
        "description": "https://www.hotclubjazzlyon.com/",
        "city": "lyon"
      }
    },
    {
      "type": "Feature",
      "id": "Kraspek Myzik",
      "geometry": {
        "type": "Point",
        "coordinates": [
          4.835775421944657,
          45.771294137807615
        ]
      },
      "properties": {
        "title": "Kraspek Myzik",
        "icon": "music",
        "description": "http://kraspekmyzik.com/",
        "city": "lyon"
      }
    },
    {
      "type": "Feature",
      "id": "La Marquise",
      "geometry": {
        "type": "Point",
        "coordinates": [
          4.840057922862742,
          45.759096281231706
        ]
      },
      "properties": {
        "title": "La Marquise",
        "icon": "music",
        "description": "http://www.marquise.net/",
        "city": "lyon"
      }
    },
    {
      "type": "Feature",
      "id": "La Plateforme",
      "geometry": {
        "type": "Point",
        "coordinates": [
          4.840403461890766,
          45.76182849637386
        ]
      },
      "properties": {
        "title": "La Plateforme",
        "icon": "music",
        "description": "https://cafe-oz.com/",
        "city": "lyon"
      }
    },
    {
      "type": "Feature",
      "id": "LDLC Arena",
      "geometry": {
        "type": "Point",
        "coordinates": [
          4.979913252649467,
          45.769280639372276
        ]
      },
      "properties": {
        "title": "LDLC Arena",
        "icon": "music",
        "description": "https://www.olvallee.fr/lieux/ldlc-arena/",
        "city": "lyon"
      }
    },
    {
      "type": "Feature",
      "id": "Chromatique",
      "geometry": {
        "type": "Point",
        "coordinates": [
          4.847040160142772,
          45.750819488952686
        ]
      },
      "properties": {
        "title": "Chromatique",
        "icon": "dot-11",
        "description": "https://www.chromatique.art/",
        "city": "lyon"
      }
    },
    {
      "type": "Feature",
      "id": "Matmut Stadium de Gerland",
      "geometry": {
        "type": "Point",
        "coordinates": [
          4.832137062735327,
          45.72375112024588
        ]
      },
      "properties": {
        "title": "Matmut Stadium de Gerland",
        "icon": "music",
        "description": "",
        "city": "lyon"
      }
    },
    {
      "type": "Feature",
      "id": "Jack Jack",
      "geometry": {
        "type": "Point",
        "coordinates": [
          4.908581917764821,
          45.742338170768804
        ]
      },
      "properties": {
        "title": "Jack Jack",
        "icon": "music",
        "description": "https://mjcbron.fr/",
        "city": "lyon"
      }
    },
    {
      "type": "Feature",
      "id": "MJC Bonneterre",
      "geometry": {
        "type": "Point",
        "coordinates": [
          4.885933617945258,
          45.76175040275761
        ]
      },
      "properties": {
        "title": "MJC Bonneterre",
        "icon": "music",
        "description": "https://www.mjc-villeurbanne.org/",
        "city": "lyon"
      }
    },
    {
      "type": "Feature",
      "id": "Théâtre antique de Fourvière",
      "geometry": {
        "type": "Point",
        "coordinates": [
          4.819662249985661,
          45.75874341341396
        ]
      },
      "properties": {
        "title": "Théâtre antique de Fourvière",
        "icon": "music",
        "description": "",
        "city": "lyon"
      }
    },
    {
      "type": "Feature",
      "id": "Opéra National de Lyon",
      "geometry": {
        "type": "Point",
        "coordinates": [
          4.836256972967631,
          45.76782652695555
        ]
      },
      "properties": {
        "title": "Opéra National de Lyon",
        "icon": "music",
        "description": "https://www.opera-lyon.com/",
        "city": "lyon"
      }
    },
    {
      "type": "Feature",
      "id": "Palais de la Mutualité",
      "geometry": {
        "type": "Point",
        "coordinates": [
          4.841314180794806,
          45.75651519631044
        ]
      },
      "properties": {
        "title": "Palais de la Mutualité",
        "icon": "music",
        "description": "https://www.lyon.fr/recherche?search_api_fulltext=palais+de+la+mutualite&type=All",
        "city": "lyon"
      }
    },
    {
      "type": "Feature",
      "id": "Péniche Loupika",
      "geometry": {
        "type": "Point",
        "coordinates": [
          4.814561882601606,
          45.736761829365655
        ]
      },
      "properties": {
        "title": "Péniche Loupika",
        "icon": "music",
        "description": "",
        "city": "lyon"
      }
    },
    {
      "type": "Feature",
      "id": "Rock N Eat",
      "geometry": {
        "type": "Point",
        "coordinates": [
          4.811639102575134,
          45.771063203788856
        ]
      },
      "properties": {
        "title": "Rock N Eat",
        "icon": "music",
        "description": "https://www.rockneat.com/",
        "city": "lyon"
      }
    },
    {
      "type": "Feature",
      "id": "Le Sirius",
      "geometry": {
        "type": "Point",
        "coordinates": [
          4.840335224579792,
          45.76111880660408
        ]
      },
      "properties": {
        "title": "Le Sirius",
        "icon": "music",
        "description": "https://www.lesirius.com/",
        "city": "lyon"
      }
    },
    {
      "type": "Feature",
      "id": "Salle des Rancy",
      "geometry": {
        "type": "Point",
        "coordinates": [
          4.847594718492895,
          45.755974264407975
        ]
      },
      "properties": {
        "title": "Salle des Rancy",
        "icon": "music",
        "description": "https://www.salledesrancy.com/",
        "city": "lyon"
      }
    },
    {
      "type": "Feature",
      "id": "Salle Léo Ferré ",
      "geometry": {
        "type": "Point",
        "coordinates": [
          4.825993631964207,
          45.76109675206448
        ]
      },
      "properties": {
        "title": "Salle Léo Ferré ",
        "icon": "music",
        "description": "http://www.mjcduvieuxlyon.com/",
        "city": "lyon"
      }
    },
    {
      "type": "Feature",
      "id": "Salle Victor Hugo",
      "geometry": {
        "type": "Point",
        "coordinates": [
          4.849621760358227,
          45.76784678862205
        ]
      },
      "properties": {
        "title": "Salle Victor Hugo",
        "icon": "music",
        "description": "",
        "city": "lyon"
      }
    },
    {
      "type": "Feature",
      "id": "Le Toboggan",
      "geometry": {
        "type": "Point",
        "coordinates": [
          4.955766064092964,
          45.76878299389761
        ]
      },
      "properties": {
        "title": "Le Toboggan",
        "icon": "music",
        "description": "https://letoboggan.com/",
        "city": "lyon"
      }
    },
    {
      "type": "Feature",
      "id": "Warmaudio",
      "geometry": {
        "type": "Point",
        "coordinates": [
          4.944126920392682,
          45.7667872185702
        ]
      },
      "properties": {
        "title": "Warmaudio",
        "icon": "music",
        "description": "https://warmaudio.fr/",
        "city": "lyon"
      }
    },
    {
      "type": "Feature",
      "id": "La Grooverie",
      "geometry": {
        "type": "Point",
        "coordinates": [
          4.83053012536694,
          45.76973564942163
        ]
      },
      "properties": {
        "title": "La Grooverie",
        "icon": "music",
        "description": "https://www.facebook.com/lagrooverie/?locale=fr_FR",
        "city": "lyon"
      }
    },
    {
      "type": "Feature",
      "id": "La Passagère",
      "geometry": {
        "type": "Point",
        "coordinates": [
          4.840247992216044,
          45.76059076681801
        ]
      },
      "properties": {
        "title": "La Passagère",
        "icon": "music",
        "description": "",
        "city": "lyon"
      }
    },
    {
      "type": "Feature",
      "id": "Maison M",
      "geometry": {
        "type": "Point",
        "coordinates": [
          4.829935621383864,
          45.76855453010177
        ]
      },
      "properties": {
        "title": "Maison M",
        "icon": "music",
        "description": "https://mmlyon.com/",
        "city": "lyon"
      }
    },
    {
      "type": "Feature",
      "id": "Terminal Club",
      "geometry": {
        "type": "Point",
        "coordinates": [
          4.8314741316218965,
          45.769498439406306
        ]
      },
      "properties": {
        "title": "Terminal Club",
        "icon": "music",
        "description": "https://www.terminal-club.com/",
        "city": "lyon"
      }
    },
    {
      "type": "Feature",
      "id": "Salle 3000",
      "geometry": {
        "type": "Point",
        "coordinates": [
          4.85806177180337,
          45.78517456739005
        ]
      },
      "properties": {
        "title": "Salle 3000",
        "icon": "music",
        "description": "https://www.ccc-lyon.com/",
        "city": "lyon"
      }
    },
    {
      "type": "Feature",
      "id": "Chapelle De La Trinité",
      "geometry": {
        "type": "Point",
        "coordinates": [
          4.837015480468372,
          45.76539214472852
        ]
      },
      "properties": {
        "title": "Chapelle De La Trinité",
        "icon": "music",
        "description": "https://www.lesgrandsconcerts.com/concerts",
        "city": "lyon"
      }
    },
    {
      "type": "Feature",
      "id": "Livestation DIY",
      "geometry": {
        "type": "Point",
        "coordinates": [
          4.83995960793735,
          45.75322219394572
        ]
      },
      "properties": {
        "title": "Livestation DIY",
        "icon": "music",
        "description": "https://livestationdiy.com/",
        "city": "lyon"
      }
    },
    {
      "type": "Feature",
      "id": "Plouf Bateau mousse",
      "geometry": {
        "type": "Point",
        "coordinates": [
          4.840153803366476,
          45.75963938169328
        ]
      },
      "properties": {
        "title": "Plouf Bateau mousse",
        "icon": "music",
        "description": "",
        "city": "lyon"
      }
    },
    {
      "type": "Feature",
      "id": "L'ambassade",
      "geometry": {
        "type": "Point",
        "coordinates": [
          4.8363720708467985,
          45.76056517146233
        ]
      },
      "properties": {
        "title": "L'ambassade",
        "icon": "music",
        "description": "",
        "city": "lyon"
      }
    },
    {
      "type": "Feature",
      "id": "Le Petit Salon",
      "geometry": {
        "type": "Point",
        "coordinates": [
          4.848965037873324,
          45.74091768990373
        ]
      },
      "properties": {
        "title": "Le Petit Salon",
        "icon": "music",
        "description": "https://www.lpslyon.fr/",
        "city": "lyon"
      }
    },
    {
      "type": "Feature",
      "id": "Ninkasi Gorge du Loup",
      "geometry": {
        "type": "Point",
        "coordinates": [
          4.805288231932393,
          45.77146427487765
        ]
      },
      "properties": {
        "title": "Ninkasi Gorge du Loup",
        "icon": "music",
        "description": "https://www.ninkasi.fr/lieux/ninkasi-gorge-de-loup/",
        "city": "lyon"
      }
    },
    {
      "type": "Feature",
      "id": "Ninkasi Gratte Ciel",
      "geometry": {
        "type": "Point",
        "coordinates": [
          4.8792028318165785,
          45.7691706463425
        ]
      },
      "properties": {
        "title": "Ninkasi Gratte Ciel",
        "icon": "music",
        "description": "https://www.ninkasi.fr/lieux/ninkasi-gratte-ciel/",
        "city": "lyon"
      }
    },
    {
      "type": "Feature",
      "id": "Ninkasi Guillotière",
      "geometry": {
        "type": "Point",
        "coordinates": [
          4.8410423842345285,
          45.756186539778
        ]
      },
      "properties": {
        "title": "Ninkasi Guillotière",
        "icon": "music",
        "description": "https://www.ninkasi.fr/lieux/ninkasi-guillotiere/",
        "city": "lyon"
      }
    },
    {
      "type": "Feature",
      "id": "Ninkasi La Soie",
      "geometry": {
        "type": "Point",
        "coordinates": [
          4.919605013198062,
          45.76100286289491
        ]
      },
      "properties": {
        "title": "Ninkasi La Soie",
        "icon": "music",
        "description": "https://www.ninkasi.fr/lieux/ninkasi-la-soie/",
        "city": "lyon"
      }
    },
    {
      "type": "Feature",
      "id": "Ninkasi OL Vallée",
      "geometry": {
        "type": "Point",
        "coordinates": [
          4.980168945083201,
          45.76728901140007
        ]
      },
      "properties": {
        "title": "Ninkasi OL Vallée",
        "icon": "music",
        "description": "https://www.ninkasi.fr/lieux/ninkasi-ol-vallee/",
        "city": "lyon"
      }
    },
    {
      "type": "Feature",
      "id": "Ninkasi Part-Dieu",
      "geometry": {
        "type": "Point",
        "coordinates": [
          4.858261920165393,
          45.75781579067708
        ]
      },
      "properties": {
        "title": "Ninkasi Part-Dieu",
        "icon": "music",
        "description": "https://www.ninkasi.fr/lieux/ninkasi-part-dieu/",
        "city": "lyon"
      }
    },
    {
      "type": "Feature",
      "id": "Ninkasi Saint Paul",
      "geometry": {
        "type": "Point",
        "coordinates": [
          4.828005683638858,
          45.76593080133774
        ]
      },
      "properties": {
        "title": "Ninkasi Saint Paul",
        "icon": "music",
        "description": "https://www.ninkasi.fr/lieux/ninkasi-saint-paul/",
        "city": "lyon"
      }
    },
    {
      "type": "Feature",
      "id": "Ninkasi Vaise",
      "geometry": {
        "type": "Point",
        "coordinates": [
          4.812824461129642,
          45.788306965548486
        ]
      },
      "properties": {
        "title": "Ninkasi Vaise",
        "icon": "music",
        "description": "https://www.ninkasi.fr/lieux/ninkasi-vaise/",
        "city": "lyon"
      }
    },
    {
      "type": "Feature",
      "id": "Parc des Oiseaux",
      "geometry": {
        "type": "Point",
        "coordinates": [
          5.02589790089903,
          45.993254501595615
        ]
      },
      "properties": {
        "title": "Parc des Oiseaux",
        "icon": "music",
        "description": " https://www.parcdesoiseaux.com/",
        "city": "lyon"
      }
    },
    {
      "type": "Feature",
      "id": "Double Mixte",
      "geometry": {
        "type": "Point",
        "coordinates": [
          4.872795133135988,
          45.78105991020884
        ]
      },
      "properties": {
        "title": "Double Mixte",
        "icon": "music",
        "description": " https://www.doublemixte.com/",
        "city": "lyon"
      }
    },
    {
      "type": "Feature",
      "id": "La Balise 46 - MJC Villeurbanne",
      "geometry": {
        "type": "Point",
        "coordinates": [
          4.886001947668762,
          45.761687885239354
        ]
      },
      "properties": {
        "title": "La Balise 46 - MJC Villeurbanne",
        "icon": "music",
        "description": "https://www.mjc-villeurbanne.org/rendez-vous/",
        "city": "lyon"
      }
    },
    {
      "type": "Feature",
      "id": "L'InterValle",
      "geometry": {
        "type": "Point",
        "coordinates": [
          4.6803092834409155,
          45.7388685799287
        ]
      },
      "properties": {
        "title": "L'InterValle",
        "icon": "music",
        "description": " http://www.ccvl.fr/page.php?sid=3KzonJZ2jU&page=DT1572429378&lang=fr&choix=PAGEFRANCE&codej=france&time=20191119104029",
        "city": "lyon"
      }
    },
    {
      "type": "Feature",
      "id": "Aux Bons sauvages",
      "geometry": {
        "type": "Point",
        "coordinates": [
          4.817117506658561,
          45.74944948005652
        ]
      },
      "properties": {
        "title": "Aux Bons sauvages",
        "icon": "music",
        "description": "https://aux-bons-sauvages.fr/",
        "city": "lyon"
      }
    },
    {
      "type": "Feature",
      "id": "La Triperie",
      "geometry": {
        "type": "Point",
        "coordinates": [
          4.834727467042294,
          45.7715010630956
        ]
      },
      "properties": {
        "title": "La Triperie",
        "icon": "music",
        "description": "",
        "city": "lyon"
      }
    },
    {
      "type": "Feature",
      "id": "Vélcroc",
      "geometry": {
        "type": "Point",
        "coordinates": [
          4.841331476718182,
          45.764052273180255
        ]
      },
      "properties": {
        "title": "Vélcroc",
        "icon": "music",
        "description": "https://velcroc.com/",
        "city": "lyon"
      }
    },
    {
      "type": "Feature",
      "id": "Les Valseuses",
      "geometry": {
        "type": "Point",
        "coordinates": [
          4.835317772026436,
          45.77145007466286
        ]
      },
      "properties": {
        "title": "Les Valseuses",
        "icon": "music",
        "description": "http://www.valseuses.com/",
        "city": "lyon"
      }
    },
    {
      "type": "Feature",
      "id": "Tram33",
      "geometry": {
        "type": "Point",
        "coordinates": [
          4.828289178627723,
          45.74980672056602
        ]
      },
      "properties": {
        "title": "Tram33",
        "icon": "music",
        "description": "",
        "city": "lyon"
      }
    },
    {
      "type": "Feature",
      "id": "405 du Parc",
      "geometry": {
        "type": "Point",
        "coordinates": [
          4.8547559154432385,
          45.748366943012535
        ]
      },
      "properties": {
        "title": "405 du Parc",
        "icon": "music",
        "description": "",
        "city": "lyon"
      }
    },
    {
      "type": "Feature",
      "id": "L'Evergreen",
      "geometry": {
        "type": "Point",
        "coordinates": [
          4.844296311921913,
          45.76573555786398
        ]
      },
      "properties": {
        "title": "L'Evergreen",
        "icon": "music",
        "description": "https://www.levergreen-restaurant-lyon.fr/",
        "city": "lyon"
      }
    },
    {
      "type": "Feature",
      "id": "La Clef de Voûte",
      "geometry": {
        "type": "Point",
        "coordinates": [
          4.834447869226795,
          45.77087245546227
        ]
      },
      "properties": {
        "title": "La Clef de Voûte",
        "icon": "music",
        "description": "https://www.laclefdevoute.fr/",
        "city": "lyon"
      }
    },
    {
      "type": "Feature",
      "id": "Antidote",
      "geometry": {
        "type": "Point",
        "coordinates": [
          4.824091432887746,
          45.75595413609204
        ]
      },
      "properties": {
        "title": "Antidote",
        "icon": "music",
        "description": "https://www.antidote-pub.com/",
        "city": "lyon"
      }
    },
    {
      "type": "Feature",
      "id": "Platypus Brewpub",
      "geometry": {
        "type": "Point",
        "coordinates": [
          4.823686582367315,
          45.74631225353851
        ]
      },
      "properties": {
        "title": "Platypus Brewpub",
        "icon": "music",
        "description": "https://www.facebook.com/platypusbrewpub/",
        "city": "lyon"
      }
    },
    {
      "type": "Feature",
      "id": "Théâtre de l’Elysée",
      "geometry": {
        "type": "Point",
        "coordinates": [
          4.842075771456818,
          45.755139319907734
        ]
      },
      "properties": {
        "title": "Théâtre de l’Elysée",
        "icon": "theatre",
        "description": " https://lelysee.com/",
        "city": "lyon"
      }
    },
    {
      "type": "Feature",
      "id": "IAC",
      "geometry": {
        "type": "Point",
        "coordinates": [
          4.872550106024222,
          45.76252731618125
        ]
      },
      "properties": {
        "title": "IAC",
        "icon": "music",
        "description": "https://i-ac.eu/",
        "city": "lyon"
      }
    },
    {
      "type": "Feature",
      "id": "Les Clameurs",
      "geometry": {
        "type": "Point",
        "coordinates": [
          4.842524348419091,
          45.75402032429334
        ]
      },
      "properties": {
        "title": "Les Clameurs",
        "icon": "music",
        "description": "https://www.barlesclameurs.com/",
        "city": "lyon"
      }
    },
    {
      "type": "Feature",
      "id": "La Boulangerie du Prado",
      "geometry": {
        "type": "Point",
        "coordinates": [
          4.842603867002448,
          45.750706825674605
        ]
      },
      "properties": {
        "title": "La Boulangerie du Prado",
        "icon": "music",
        "description": "https://boulangerieduprado.com/",
        "city": "lyon"
      }
    },
    {
      "type": "Feature",
      "id": "Conservatoire de Lyon - CRR",
      "geometry": {
        "type": "Point",
        "coordinates": [
          4.822471990076247,
          45.76103406274964
        ]
      },
      "properties": {
        "title": "Conservatoire de Lyon - CRR",
        "icon": "music",
        "description": "https://www.conservatoire-lyon.fr/",
        "city": "lyon"
      }
    },
    {
      "type": "Feature",
      "id": "Les SUBS",
      "geometry": {
        "type": "Point",
        "coordinates": [
          4.817537804493731,
          45.76803340450607
        ]
      },
      "properties": {
        "title": "Les SUBS",
        "icon": "music",
        "description": "https://www.les-subs.com/",
        "city": "lyon"
      }
    },
    {
      "type": "Feature",
      "id": "La Vache Rouge",
      "geometry": {
        "type": "Point",
        "coordinates": [
          4.862682395741553,
          45.715961248479466
        ]
      },
      "properties": {
        "title": "La Vache Rouge",
        "icon": "music",
        "description": "https://www.facebook.com/lavacherougelyon",
        "city": "lyon"
      }
    },
    {
      "type": "Feature",
      "id": "Opéra Underground",
      "geometry": {
        "type": "Point",
        "coordinates": [
          4.8362876334346,
          45.76767165366122
        ]
      },
      "properties": {
        "title": "Opéra Underground",
        "icon": "music",
        "description": "https://www.opera-lyon.com/",
        "city": "lyon"
      }
    },
    {
      "type": "Feature",
      "id": "Le Court Circuit",
      "geometry": {
        "type": "Point",
        "coordinates": [
          4.843294965469017,
          45.75161047900642
        ]
      },
      "properties": {
        "title": "Le Court Circuit",
        "icon": "music",
        "description": "https://www.le-court-circuit.fr/",
        "city": "lyon"
      }
    },
    {
      "type": "Feature",
      "id": "Espace Gerson",
      "geometry": {
        "type": "Point",
        "coordinates": [
          4.826527681488014,
          45.76670373627435
        ]
      },
      "properties": {
        "title": "Espace Gerson",
        "icon": "theatre",
        "description": "https://www.espacegerson.com/",
        "city": "lyon"
      }
    },
    {
      "type": "Feature",
      "id": "Theatre A L'ouest",
      "geometry": {
        "type": "Point",
        "coordinates": [
          4.980221035585186,
          45.767031236745304
        ]
      },
      "properties": {
        "title": "Theatre A L'ouest",
        "icon": "theatre",
        "description": "https://theatrealouest.com/lyon",
        "city": "lyon"
      }
    },
    {
      "type": "Feature",
      "id": "Le Nombril du Monde",
      "geometry": {
        "type": "Point",
        "coordinates": [
          4.834398399880701,
          45.770956938402534
        ]
      },
      "properties": {
        "title": "Le Nombril du Monde",
        "icon": "theatre",
        "description": "https://www.lenombrildumonde.com/",
        "city": "lyon"
      }
    },
    {
      "type": "Feature",
      "id": "Le Boui Boui",
      "geometry": {
        "type": "Point",
        "coordinates": [
          4.825898115024647,
          45.75968118309203
        ]
      },
      "properties": {
        "title": "Le Boui Boui",
        "icon": "theatre",
        "description": "https://www.bouiboui.com/",
        "city": "lyon"
      }
    },
    {
      "type": "Feature",
      "id": "Salle Paul Garcin",
      "geometry": {
        "type": "Point",
        "coordinates": [
          4.824778014858868,
          45.770503222058046
        ]
      },
      "properties": {
        "title": "Salle Paul Garcin",
        "icon": "theatre",
        "description": "https://www.bouiboui.com/",
        "city": "lyon"
      }
    },
    {
      "type": "Feature",
      "id": "Cafe Theatre Le Complexe",
      "geometry": {
        "type": "Point",
        "coordinates": [
          4.832853185309924,
          45.76914929692879
        ]
      },
      "properties": {
        "title": "Cafe Theatre Le Complexe",
        "icon": "theatre",
        "description": "https://www.lecomplexelyon.com/",
        "city": "lyon"
      }
    },
    {
      "type": "Feature",
      "id": "L'ile O",
      "geometry": {
        "type": "Point",
        "coordinates": [
          4.832863969897169,
          45.747603825712716
        ]
      },
      "properties": {
        "title": "L'ile O",
        "icon": "music",
        "description": "https://www.scenes-otrement.com/",
        "city": "lyon"
      }
    },
    {
      "type": "Feature",
      "id": "Centre culturel Charlie Chaplin",
      "geometry": {
        "type": "Point",
        "coordinates": [
          4.920604555703305,
          45.77780935200682
        ]
      },
      "properties": {
        "title": "Centre culturel Charlie Chaplin",
        "icon": "music",
        "description": "http://www.centrecharliechaplin.com/",
        "city": "lyon"
      }
    },
    {
      "type": "Feature",
      "id": "Ô Totem live",
      "geometry": {
        "type": "Point",
        "coordinates": [
          4.900429084625977,
          45.8141693108409
        ]
      },
      "properties": {
        "title": "Ô Totem live",
        "icon": "music",
        "description": "https://www.mjcrillieux.com/",
        "city": "lyon"
      }
    },
    {
      "type": "Feature",
      "id": "Imhotep",
      "geometry": {
        "type": "Point",
        "coordinates": [
          4.825372428795784,
          45.75859047616694
        ]
      },
      "properties": {
        "title": "Imhotep",
        "icon": "music",
        "description": "https://www.imhotep-bar.fr/",
        "city": "lyon"
      }
    },
    {
      "type": "Feature",
      "id": "La Fabuleuse Cantine",
      "geometry": {
        "type": "Point",
        "coordinates": [
          4.836297109848818,
          45.74578458374735
        ]
      },
      "properties": {
        "title": "La Fabuleuse Cantine",
        "icon": "music",
        "description": "https://lyon7.lafabuleusecantine.fr/",
        "city": "lyon"
      }
    },
    {
      "type": "Feature",
      "id": "La Fourmilière",
      "geometry": {
        "type": "Point",
        "coordinates": [
          4.839665847202402,
          45.75226286114482
        ]
      },
      "properties": {
        "title": "La Fourmilière",
        "icon": "music",
        "description": "https://www.lafourmilierecafe.fr/",
        "city": "lyon"
      }
    },
    {
      "type": "Feature",
      "id": "La Pente",
      "geometry": {
        "type": "Point",
        "coordinates": [
          4.827795820436171,
          45.771548686174434
        ]
      },
      "properties": {
        "title": "La Pente",
        "icon": "dot-11",
        "description": " https://www.lapente.fr/",
        "city": "lyon"
      }
    },
    {
      "type": "Feature",
      "id": "Selcius",
      "geometry": {
        "type": "Point",
        "coordinates": [
          4.814844366517448,
          45.73890911709652
        ]
      },
      "properties": {
        "title": "Selcius",
        "icon": "dot-11",
        "description": " https://selciusrestaurant.fr/",
        "city": "lyon"
      }
    },
    {
      "type": "Feature",
      "id": "L'agend'arts",
      "geometry": {
        "type": "Point",
        "coordinates": [
          4.835001547204626,
          45.776240538975124
        ]
      },
      "properties": {
        "title": "L'agend'arts",
        "icon": "dot-11",
        "description": "https://agendarts.wordpress.com/",
        "city": "lyon"
      }
    },
    {
      "type": "Feature",
      "id": "Maison Du Peuple De Pierre Benite",
      "geometry": {
        "type": "Point",
        "coordinates": [
          4.8230004523845045,
          45.70406573392333
        ]
      },
      "properties": {
        "title": "Maison Du Peuple De Pierre Benite",
        "icon": "dot-11",
        "description": " https://pierrebenitemdp.fr/",
        "city": "lyon"
      }
    },
    {
      "type": "Feature",
      "id": "Theatre De La Renaissance",
      "geometry": {
        "type": "Point",
        "coordinates": [
          4.811053647290437,
          45.716478059199815
        ]
      },
      "properties": {
        "title": "Theatre De La Renaissance",
        "icon": "dot-11",
        "description": " https://www.theatrelarenaissance.com/",
        "city": "lyon"
      }
    },
    {
      "type": "Feature",
      "id": "Theatre De Venissieux (La Machinerie)",
      "geometry": {
        "type": "Point",
        "coordinates": [
          4.882216497568314,
          45.704880750102234
        ]
      },
      "properties": {
        "title": "Theatre De Venissieux (La Machinerie)",
        "icon": "dot-11",
        "description": " https://www.lamachinerie-venissieux.fr/",
        "city": "lyon"
      }
    },
    {
      "type": "Feature",
      "id": "MacBAR",
      "geometry": {
        "type": "Point",
        "coordinates": [
          4.8523097903145755,
          45.78430897694954
        ]
      },
      "properties": {
        "title": "MacBAR",
        "icon": "dot-11",
        "description": " https://www.mac-lyon.com/fr/cafe-restaurant-et-boutique",
        "city": "lyon"
      }
    },
    {
      "type": "Feature",
      "id": "Six",
      "geometry": {
        "type": "Point",
        "coordinates": [
          4.859963744834509,
          45.7669801886244
        ]
      },
      "properties": {
        "title": "Six",
        "icon": "dot-11",
        "description": " https://www.sixbrotteaux.com/",
        "city": "lyon"
      }
    },
    {
      "type": "Feature",
      "id": "Anticlub",
      "geometry": {
        "type": "Point",
        "coordinates": [
          4.811332909159611,
          45.77108340426693
        ]
      },
      "properties": {
        "title": "Anticlub",
        "icon": "dot-11",
        "description": " https://www.instagram.com/anticlub.lyon/",
        "city": "lyon"
      }
    },
    {
      "type": "Feature",
      "id": "FIDUCIAL Astéria",
      "geometry": {
        "type": "Point",
        "coordinates": [
          4.980433814261172,
          45.76994394488923
        ]
      },
      "properties": {
        "title": "FIDUCIAL Astéria",
        "icon": "dot-11",
        "description": "https://www.fiducial-asteria.com/",
        "city": "lyon"
      }
    }
  ]
}