{"type":"FeatureCollection","features":[{"type":"Feature","id":"Viện Goethe Hà Nội","geometry":{"type":"Point","coordinates":[105.83786061914856,21.030152014999086]},"properties":{"title":"Viện Goethe Hà Nội","icon":"marker-15","description":"https://www.goethe.de/ins/vn/vi/index.html"}},{"type":"Feature","id":"British Council","geometry":{"type":"Point","coordinates":[105.82834960536574,21.041259583782075]},"properties":{"title":"British Council","icon":"marker-15","description":"https://www.britishcouncil.vn/"}},{"type":"Feature","id":"Viện Pháp tại Việt Nam ","geometry":{"type":"Point","coordinates":[105.8425787253096,21.019444785152753]},"properties":{"title":"Viện Pháp tại Việt Nam ","icon":"marker-15","description":"https://ifv.vn/fr/notre-reseau/institut-francais-de-hanoi/#/"}},{"type":"Feature","id":"The Japan Foundation","geometry":{"type":"Point","coordinates":[105.8487864736135,21.021841555862785]},"properties":{"title":"The Japan Foundation","icon":"marker-15","description":"https://hn.jpf.go.jp/"}},{"type":"Feature","id":"Korean Culture Center","geometry":{"type":"Point","coordinates":[105.8489034133165,21.01868209659378]},"properties":{"title":"Korean Culture Center","icon":"marker-15","description":"http://vietnam.korean-culture.org/vi"}},{"type":"Feature","id":"The American Center Hanoi","geometry":{"type":"Point","coordinates":[105.81901218536056,21.024753727316764]},"properties":{"title":"The American Center Hanoi","icon":"marker-15","description":"https://vn.usembassy.gov/vi/american-center-hanoi/"}},{"type":"Feature","id":"Casa Italia","geometry":{"type":"Point","coordinates":[105.85672824445415,21.026149403669923]},"properties":{"title":"Casa Italia","icon":"marker-15","description":"https://www.facebook.com/CasaItaliaHanoi/\t"}},{"type":"Feature","id":"Indian Cultural Center","geometry":{"type":"Point","coordinates":[105.84950939716897,21.02179500238531]},"properties":{"title":"Indian Cultural Center","icon":"marker-15","description":"https://www.facebook.com/IndianCultureInVietnam"}},{"type":"Feature","id":"Vietnam Exhibition Centre for Culture and Arts - Gallery","geometry":{"type":"Point","coordinates":[105.85286690420646,21.02314251235292]},"properties":{"title":"Vietnam Exhibition Centre for Culture and Arts - Gallery","icon":"marker-15","description":""}},{"type":"Feature","id":"Ha Noi Informations & Exhibition Center","geometry":{"type":"Point","coordinates":[105.85343336300126,21.02556603219955]},"properties":{"title":"Ha Noi Informations & Exhibition Center","icon":"marker-15","description":""}},{"type":"Feature","id":"Cultural Exchange Center","geometry":{"type":"Point","coordinates":[105.85286147163556,21.03560412119208]},"properties":{"title":"Cultural Exchange Center","icon":"marker-15","description":""}},{"type":"Feature","id":"54 Traditions Gallery","geometry":{"type":"Point","coordinates":[105.84481733120852,21.041713414635847]},"properties":{"title":"54 Traditions Gallery","icon":"marker-15","description":"https://54traditions.vn/"}},{"type":"Feature","id":"Apricot Gallery","geometry":{"type":"Point","coordinates":[105.84802149912925,21.030848981409616]},"properties":{"title":"Apricot Gallery","icon":"marker-15","description":"http://www.apricotgallery.com.vn/"}},{"type":"Feature","id":"Bookworm Hanoi","geometry":{"type":"Point","coordinates":[105.84270394021378,21.044654722401745]},"properties":{"title":"Bookworm Hanoi","icon":"marker-15","description":"https://www.bookwormhanoi.com/"}},{"type":"Feature","id":"Chula Fashion House","geometry":{"type":"Point","coordinates":[105.81333384343631,21.070426911880276]},"properties":{"title":"Chula Fashion House","icon":"marker-15","description":"https://chulafashion.com/"}},{"type":"Feature","id":"39 Concept (Gallery 39)","geometry":{"type":"Point","coordinates":[105.84924972531516,21.029768262244655]},"properties":{"title":"39 Concept (Gallery 39)","icon":"marker-15","description":"https://39-concept.business.site/?utm_source=gmb&utm_medium=referral"}},{"type":"Feature","id":"MAI GALLERY","geometry":{"type":"Point","coordinates":[105.84621913996104,21.029699325630272]},"properties":{"title":"MAI GALLERY","icon":"marker-15"}},{"type":"Feature","id":"Manzi Exhibition Space","geometry":{"type":"Point","coordinates":[105.84522351849192,21.041828371993713]},"properties":{"title":"Manzi Exhibition Space","icon":"marker-15","description":"https://www.manziart.space/"}},{"type":"Feature","id":"Tadioto","geometry":{"type":"Point","coordinates":[105.85780599150101,21.02573475049403]},"properties":{"title":"Tadioto","icon":"marker-15","description":""}},{"type":"Feature","id":"Vincom Center for Contemporary Art (VCCA)","geometry":{"type":"Point","coordinates":[105.81476154424465,21.003156987907047]},"properties":{"title":"Vincom Center for Contemporary Art (VCCA)","icon":"marker-15","description":"http://vccavietnam.com/"}},{"type":"Feature","id":"Heritage Space","geometry":{"type":"Point","coordinates":[105.85768750987852,21.018142504500638]},"properties":{"title":"Heritage Space","icon":"marker-15","description":"http://www.heritagespace.com.vn/"}},{"type":"Feature","id":"Vân Ho Exhibition Center","geometry":{"type":"Point","coordinates":[105.84770907274799,21.011481769479207]},"properties":{"title":"Vân Ho Exhibition Center","icon":"marker-15","description":""}},{"type":"Feature","id":"WORK ROOM FOUR","geometry":{"type":"Point","coordinates":[105.8238340921638,21.065483003223587]},"properties":{"title":"WORK ROOM FOUR","icon":"marker-15","description":"https://www.workroomfour.com/"}},{"type":"Feature","id":"Bat Trang Ceramic Artspace","geometry":{"type":"Point","coordinates":[105.91353532935182,20.978324171668866]},"properties":{"title":"Bat Trang Ceramic Artspace","icon":"marker-15"}},{"type":"Feature","id":"Xưởng Thứ Bảy - The 7th Atelier","geometry":{"type":"Point","coordinates":[105.8605759895995,20.999968165629507]},"properties":{"title":"Xưởng Thứ Bảy - The 7th Atelier","icon":"marker-15","description":""}},{"type":"Feature","id":"MIDDLE CAFE","geometry":{"type":"Point","coordinates":[105.85354586936894,21.03512452422748]},"properties":{"title":"MIDDLE CAFE","icon":"marker-15","description":""}},{"type":"Feature","id":"TITA Trấn Vũ","geometry":{"type":"Point","coordinates":[105.84019465476288,21.046100513070332]},"properties":{"title":"TITA Trấn Vũ","icon":"marker-15","description":"https://www.tita.art/"}},{"type":"Feature","id":"Bảo Tàng Phụ Nữ Việt Nam","geometry":{"type":"Point","coordinates":[105.85171412153765,21.023405308774244]},"properties":{"title":"Bảo Tàng Phụ Nữ Việt Nam","icon":"marker-15","description":"https://baotangphunu.org.vn/en/home/"}}]}