{"type":"FeatureCollection","features":[{"type":"Feature","id":"Viện Goethe Hà Nội","geometry":{"type":"Point","coordinates":[105.83786061914856,21.030152014999086]},"properties":{"title":"Viện Goethe Hà Nội","icon":"museum","description":"https://www.goethe.de/ins/vn/vi/index.html"}},{"type":"Feature","id":"British Council","geometry":{"type":"Point","coordinates":[105.82834960536574,21.041259583782075]},"properties":{"title":"British Council","icon":"museum","description":"https://www.britishcouncil.vn/"}},{"type":"Feature","id":"Viện Pháp tại Việt Nam ","geometry":{"type":"Point","coordinates":[105.8425787253096,21.019444785152753]},"properties":{"title":"Viện Pháp tại Việt Nam ","icon":"museum","description":"https://ifv.vn/fr/notre-reseau/institut-francais-de-hanoi/#/"}},{"type":"Feature","id":"The Japan Foundation","geometry":{"type":"Point","coordinates":[105.8487864736135,21.021841555862785]},"properties":{"title":"The Japan Foundation","icon":"museum","description":"https://hn.jpf.go.jp/"}},{"type":"Feature","id":"Korean Culture Center","geometry":{"type":"Point","coordinates":[105.8489034133165,21.01868209659378]},"properties":{"title":"Korean Culture Center","icon":"museum","description":"http://vietnam.korean-culture.org/vi"}},{"type":"Feature","id":"The American Center Hanoi","geometry":{"type":"Point","coordinates":[105.81901218536056,21.024753727316764]},"properties":{"title":"The American Center Hanoi","icon":"museum","description":"https://vn.usembassy.gov/vi/american-center-hanoi/"}},{"type":"Feature","id":"Casa Italia","geometry":{"type":"Point","coordinates":[105.85672824445415,21.026149403669923]},"properties":{"title":"Casa Italia","icon":"museum","description":"https://www.facebook.com/CasaItaliaHanoi/"}},{"type":"Feature","id":"Indian Cultural Center","geometry":{"type":"Point","coordinates":[105.84950939716897,21.02179500238531]},"properties":{"title":"Indian Cultural Center","icon":"museum","description":"https://www.facebook.com/IndianCultureInVietnam"}},{"type":"Feature","id":"Vietnam Exhibition Centre for Culture and Arts - Gallery","geometry":{"type":"Point","coordinates":[105.85286690420646,21.02314251235292]},"properties":{"title":"Vietnam Exhibition Centre for Culture and Arts - Gallery","icon":"museum","description":""}},{"type":"Feature","id":"Ha Noi Informations & Exhibition Center","geometry":{"type":"Point","coordinates":[105.85343336300126,21.02556603219955]},"properties":{"title":"Ha Noi Informations & Exhibition Center","icon":"museum","description":""}},{"type":"Feature","id":"Cultural Exchange Center","geometry":{"type":"Point","coordinates":[105.85286147163556,21.03560412119208]},"properties":{"title":"Cultural Exchange Center","icon":"museum","description":""}},{"type":"Feature","id":"54 Traditions Gallery","geometry":{"type":"Point","coordinates":[105.84481733120852,21.041713414635847]},"properties":{"title":"54 Traditions Gallery","icon":"art-gallery","description":"https://54traditions.vn/"}},{"type":"Feature","id":"Apricot Gallery","geometry":{"type":"Point","coordinates":[105.84802149912925,21.030848981409616]},"properties":{"title":"Apricot Gallery","icon":"art-gallery","description":"http://www.apricotgallery.com.vn/"}},{"type":"Feature","id":"Bookworm Hanoi","geometry":{"type":"Point","coordinates":[105.84270394021378,21.044654722401745]},"properties":{"title":"Bookworm Hanoi","icon":"art-gallery","description":"https://www.bookwormhanoi.com/"}},{"type":"Feature","id":"Chula Fashion House","geometry":{"type":"Point","coordinates":[105.81333384343631,21.070426911880276]},"properties":{"title":"Chula Fashion House","icon":"art-gallery","description":"https://chulafashion.com/"}},{"type":"Feature","id":"39 Concept (Gallery 39)","geometry":{"type":"Point","coordinates":[105.84924972531516,21.029768262244655]},"properties":{"title":"39 Concept (Gallery 39)","icon":"art-gallery","description":"https://39-concept.business.site/?utm_source=gmb&utm_medium=referral"}},{"type":"Feature","id":"MAI GALLERY","geometry":{"type":"Point","coordinates":[105.84621913996104,21.029699325630272]},"properties":{"title":"MAI GALLERY","icon":"art-gallery","description":""}},{"type":"Feature","id":"Manzi Exhibition Space","geometry":{"type":"Point","coordinates":[105.84522351849192,21.041828371993713]},"properties":{"title":"Manzi Exhibition Space","icon":"art-gallery","description":"https://www.manziart.space/"}},{"type":"Feature","id":"Tadioto","geometry":{"type":"Point","coordinates":[105.85780599150101,21.02573475049403]},"properties":{"title":"Tadioto","icon":"art-gallery","description":""}},{"type":"Feature","id":"Vincom Center for Contemporary Art (VCCA)","geometry":{"type":"Point","coordinates":[105.81476154424465,21.003156987907047]},"properties":{"title":"Vincom Center for Contemporary Art (VCCA)","icon":"museum","description":"http://vccavietnam.com/"}},{"type":"Feature","id":"Heritage Space","geometry":{"type":"Point","coordinates":[105.85768750987852,21.018142504500638]},"properties":{"title":"Heritage Space","icon":"art-gallery","description":"http://www.heritagespace.com.vn/"}},{"type":"Feature","id":"Vân Ho Exhibition Center","geometry":{"type":"Point","coordinates":[105.84770907274799,21.011481769479207]},"properties":{"title":"Vân Ho Exhibition Center","icon":"museum","description":""}},{"type":"Feature","id":"WORK ROOM FOUR","geometry":{"type":"Point","coordinates":[105.8238340921638,21.065483003223587]},"properties":{"title":"WORK ROOM FOUR","icon":"music","description":"https://www.workroomfour.com/"}},{"type":"Feature","id":"Bat Trang Ceramic Artspace","geometry":{"type":"Point","coordinates":[105.91353532935182,20.978324171668866]},"properties":{"title":"Bat Trang Ceramic Artspace","icon":"art-gallery","description":""}},{"type":"Feature","id":"Xưởng Thứ Bảy - The 7th Atelier","geometry":{"type":"Point","coordinates":[105.8605759895995,20.999968165629507]},"properties":{"title":"Xưởng Thứ Bảy - The 7th Atelier","icon":"art-gallery","description":""}},{"type":"Feature","id":"MIDDLE CAFE","geometry":{"type":"Point","coordinates":[105.85354586936894,21.03512452422748]},"properties":{"title":"MIDDLE CAFE","icon":"art-gallery","description":""}},{"type":"Feature","id":"TITA Trấn Vũ","geometry":{"type":"Point","coordinates":[105.84019465476288,21.046100513070332]},"properties":{"title":"TITA Trấn Vũ","icon":"art-gallery","description":"https://www.tita.art/"}},{"type":"Feature","id":"Bảo Tàng Phụ Nữ Việt Nam","geometry":{"type":"Point","coordinates":[105.85171412153765,21.023405308774244]},"properties":{"title":"Bảo Tàng Phụ Nữ Việt Nam","icon":"art-gallery","description":"https://baotangphunu.org.vn/en/home/"}},{"type":"Feature","id":"Hanoi Rock City","geometry":{"type":"Point","coordinates":[105.82348301080677,21.069816332148115]},"properties":{"title":"Hanoi Rock City","icon":"music","description":"https://hrcwelive.com/"}},{"type":"Feature","id":"The Hideout Cafe Gastro Bar","geometry":{"type":"Point","coordinates":[105.82991782587897,21.070906698881778]},"properties":{"title":"The Hideout Cafe Gastro Bar","icon":"music","description":"https://www.facebook.com/TheHideoutCafeGastroBar"}},{"type":"Feature","id":"HUB x GRA","geometry":{"type":"Point","coordinates":[105.80475069034618,21.058333268306146]},"properties":{"title":"HUB x GRA","icon":"music","description":"https://www.facebook.com/hubartclub"}},{"type":"Feature","id":"La Bodega","geometry":{"type":"Point","coordinates":[105.87439774507331,21.023918331357724]},"properties":{"title":"La Bodega","icon":"music","description":"https://www.facebook.com/labodegahanoi"}},{"type":"Feature","id":"Whiskey Mystics and Men - W2M","geometry":{"type":"Point","coordinates":[105.82436989590833,21.062913657036923]},"properties":{"title":"Whiskey Mystics and Men - W2M","icon":"music","description":"https://www.facebook.com/w2mhanoi/"}},{"type":"Feature","id":"Binh Minh Jazz Club","geometry":{"type":"Point","coordinates":[105.8584544796184,21.023988948823828]},"properties":{"title":"Binh Minh Jazz Club","icon":"music","description":"https://minhjazzvietnam.com/"}},{"type":"Feature","id":"The Hanoi Social Club","geometry":{"type":"Point","coordinates":[105.84614082457388,21.029132671212018]},"properties":{"title":"The Hanoi Social Club","icon":"music","description":"https://www.facebook.com/TheHanoiSocialClub"}},{"type":"Feature","id":"Polygon Musik Café","geometry":{"type":"Point","coordinates":[105.82973389428794,21.0292765977085]},"properties":{"title":"Polygon Musik Café","icon":"music","description":"https://www.facebook.com/polygon.cafe"}},{"type":"Feature","id":"Polygon Musik","geometry":{"type":"Point","coordinates":[105.82685845414932,21.010518428388306]},"properties":{"title":"Polygon Musik","icon":"music","description":"https://www.facebook.com/polygon.cafe"}},{"type":"Feature","id":"The Hut Lakeside Lounge Bar","geometry":{"type":"Point","coordinates":[105.82222747395453,21.070991567353644]},"properties":{"title":"The Hut Lakeside Lounge Bar","icon":"music","description":"https://www.facebook.com/thehutlakeside/"}},{"type":"Feature","id":"Đảo Chuối - Banana Island","geometry":{"type":"Point","coordinates":[105.84670880914996,21.0569061489804]},"properties":{"title":"Đảo Chuối - Banana Island","icon":"music","description":"https://www.facebook.com/profile.php?id=100083317443531"}},{"type":"Feature","id":"Miami Vibes- Hanoi rooftop Pub","geometry":{"type":"Point","coordinates":[105.80607681958068,21.038206872474312]},"properties":{"title":"Miami Vibes- Hanoi rooftop Pub","icon":"music","description":"https://www.facebook.com/MIAMIHANOI"}},{"type":"Feature","id":"The Snug","geometry":{"type":"Point","coordinates":[105.82419742547938,21.062363613765207]},"properties":{"title":"The Snug","icon":"music","description":"https://www.facebook.com/TheSnugNo19?paipv=0&eav=AfbOLV3wJ8gk-Yc5yg-jPd57h_F7nSwIWRfrXFW9yM7PAQPWllP44IMXEAIJR03HHzY&_rdr"}},{"type":"Feature","id":"Purple Blues","geometry":{"type":"Point","coordinates":[105.85295554181982,21.035669418807256]},"properties":{"title":"Purple Blues","icon":"music","description":"https://purplebluesbar.com/"}},{"type":"Feature","id":"Outpost","geometry":{"type":"Point","coordinates":[105.83107385796566,21.071966971889665]},"properties":{"title":"Outpost","icon":"music","description":"https://www.facebook.com/OutpostHanoi"}},{"type":"Feature","id":"Bevvy Bar & BBQ","geometry":{"type":"Point","coordinates":[105.82247791136176,21.05686118992697]},"properties":{"title":"Bevvy Bar & BBQ","icon":"music","description":""}},{"type":"Feature","id":"Kali","geometry":{"type":"Point","coordinates":[105.82269336441556,21.056790011566108]},"properties":{"title":"Kali","icon":"music","description":"https://www.instagram.com/kali.hanoi/"}},{"type":"Feature","id":"Complex 01","geometry":{"type":"Point","coordinates":[105.82676284353376,21.010575111354445]},"properties":{"title":"Complex 01","icon":"music","description":"https://complex01.vn/"}},{"type":"Feature","id":"Matca Space for Photography","geometry":{"type":"Point","coordinates":[105.83155521463169,21.03471170050384]},"properties":{"title":"Matca Space for Photography","icon":"music","description":"https://matca.vn/"}},{"type":"Feature","id":"MAI Gallery","geometry":{"type":"Point","coordinates":[105.8462420662679,21.029700221009545]},"properties":{"title":"MAI Gallery","icon":"music","description":""}},{"type":"Feature","id":"Mipec Long Bien","geometry":{"type":"Point","coordinates":[105.86636030378475,21.04561002063465]},"properties":{"title":"Mipec Long Bien","icon":"music","description":""}},{"type":"Feature","id":"Birdcage","geometry":{"type":"Point","coordinates":[105.83064093589078,21.071788576493432]},"properties":{"title":"Birdcage","icon":"music","description":"https://www.facebook.com/birdcagehanoi/"}},{"type":"Feature","id":"Savage","geometry":{"type":"Point","coordinates":[105.82689662270299,21.06409399670235]},"properties":{"title":"Savage","icon":"music","description":"https://savage-hanoi.com/"}},{"type":"Feature","id":"Unmute","geometry":{"type":"Point","coordinates":[105.85513576406323,21.03654539874702]},"properties":{"title":"Unmute","icon":"music","description":"https://unmute.club/spaces/"}},{"type":"Feature","id":"The Kneipe","geometry":{"type":"Point","coordinates":[105.82444437358512,21.06888993546793]},"properties":{"title":"The Kneipe","icon":"music","description":"https://www.facebook.com/thekneipehanoi"}},{"type":"Feature","id":"Long Waits Jazz","geometry":{"type":"Point","coordinates":[105.8457558546594,21.03253890874671]},"properties":{"title":"Long Waits Jazz","icon":"music","description":"https://www.longwaitsjazz.com/"}},{"type":"Feature","id":"SOL 8 - Live Stage","geometry":{"type":"Point","coordinates":[105.8168917679719,21.027281593613576]},"properties":{"title":"SOL 8 - Live Stage","icon":"music","description":"https://www.facebook.com/SOL8.LiveStage"}},{"type":"Feature","id":"","geometry":{"type":"Point","coordinates":[null,null]},"properties":{"title":"","icon":"dot-11"}}]}