{"type":"FeatureCollection","features":[{"type":"Feature","id":"⁠Le Silo","geometry":{"type":"Point","coordinates":[5.365556,43.299167]},"properties":{"title":"⁠Le Silo","icon":"dot-11","description":" https://www.cepacsilo-marseille.fr/evenements/"}},{"type":"Feature","id":"⁠Le Dôme","geometry":{"type":"Point","coordinates":[5.405278,43.295556]},"properties":{"title":"⁠Le Dôme","icon":"dot-11","description":" https://dome.marseille.fr/"}},{"type":"Feature","id":"⁠Espace Julien ","geometry":{"type":"Point","coordinates":[5.379722,43.292778]},"properties":{"title":"⁠Espace Julien ","icon":"dot-11","description":" https://espace-julien.com/agenda?page=1"}},{"type":"Feature","id":"Opéra de Marseille","geometry":{"type":"Point","coordinates":[5.361389,43.293333]},"properties":{"title":"Opéra de Marseille","icon":"dot-11","description":" https://opera-odeon.marseille.fr/ "}},{"type":"Feature","id":"⁠La Criée - Scène Nationale ","geometry":{"type":"Point","coordinates":[5.3725,43.294722]},"properties":{"title":"⁠La Criée - Scène Nationale ","icon":"dot-11"}},{"type":"Feature","id":"⁠Le Makeda","geometry":{"type":"Point","coordinates":[5.384722,43.290556]},"properties":{"title":"⁠Le Makeda","icon":"dot-11","description":" https://www.lemakeda.com/"}},{"type":"Feature","id":"⁠L'Affranchi ","geometry":{"type":"Point","coordinates":[5.398056,43.304722]},"properties":{"title":"⁠L'Affranchi ","icon":"dot-11","description":" https://l-affranchi.com/"}},{"type":"Feature","id":"⁠Le Molotov ","geometry":{"type":"Point","coordinates":[5.385556,43.294167]},"properties":{"title":"⁠Le Molotov ","icon":"dot-11","description":" https://lemolotov.com/"}},{"type":"Feature","id":"⁠Dock des Suds ","geometry":{"type":"Point","coordinates":[5.368333,43.283611]},"properties":{"title":"⁠Dock des Suds ","icon":"dot-11"}},{"type":"Feature","id":"⁠Le Moulin","geometry":{"type":"Point","coordinates":[5.393333,43.2875]},"properties":{"title":"⁠Le Moulin","icon":"dot-11"}},{"type":"Feature","id":"⁠Le Cri Du Port","geometry":{"type":"Point","coordinates":[5.356944,43.304722]},"properties":{"title":"⁠Le Cri Du Port","icon":"dot-11","description":" http://criduport.fr/"}},{"type":"Feature","id":"⁠La Maison Du Chant","geometry":{"type":"Point","coordinates":[5.3775,43.296944]},"properties":{"title":"⁠La Maison Du Chant","icon":"dot-11"}},{"type":"Feature","id":"⁠L'Embobineuse ","geometry":{"type":"Point","coordinates":[5.395556,43.302778]},"properties":{"title":"⁠L'Embobineuse ","icon":"dot-11","description":" https://www.lembobineuse.biz/events/upcoming"}},{"type":"Feature","id":"⁠Cité de la Musique de Marseille ","geometry":{"type":"Point","coordinates":[5.386111,43.288611]},"properties":{"title":"⁠Cité de la Musique de Marseille ","icon":"dot-11","description":" https://www.citemusique-marseille.com/"}},{"type":"Feature","id":"⁠Palais Longchamp","geometry":{"type":"Point","coordinates":[5.393333,43.304722]},"properties":{"title":"⁠Palais Longchamp","icon":"dot-11"}},{"type":"Feature","id":"⁠Orange Vélodrome ","geometry":{"type":"Point","coordinates":[5.395556,43.269722]},"properties":{"title":"⁠Orange Vélodrome ","icon":"dot-11","description":" https://www.orangevelodrome.com/"}},{"type":"Feature","id":"⁠Esplanade Du J4","geometry":{"type":"Point","coordinates":[5.356944,43.304722]},"properties":{"title":"⁠Esplanade Du J4","icon":"dot-11"}},{"type":"Feature","id":"⁠Abbaye St Victor","geometry":{"type":"Point","coordinates":[5.365556,43.290556]},"properties":{"title":"⁠Abbaye St Victor","icon":"dot-11"}},{"type":"Feature","id":"⁠Le Cabaret Aléatoire","geometry":{"type":"Point","coordinates":[5.376667,43.291389]},"properties":{"title":"⁠Le Cabaret Aléatoire","icon":"dot-11","description":" https://cabaret-aleatoire.com/"}},{"type":"Feature","id":"⁠Friche la belle de mai","geometry":{"type":"Point","coordinates":[5.390539,43.310104]},"properties":{"title":"⁠Friche la belle de mai","icon":"dot-11","description":" https://www.lafriche.org/"}},{"type":"Feature","id":"⁠Le 15ème Art : 43.281389","geometry":{"type":"Point","coordinates":[null,5.393611]},"properties":{"title":"⁠Le 15ème Art : 43.281389","icon":"dot-11"}}]}