PLACE,LATITUDE,LONGITUDE,URL
CEPAC Silo,43.310673361823355, 5.366977904055434,https://www.cepacsilo-marseille.fr/
Le Dôme, 43.295556, 5.405278, https://dome.marseille.fr/
Espace Julien,43.2942140392514, 5.383528577932294,https://espace-julien.com/
Théâtre de La Criée, 43.29266598408319, 5.368740750149353,https://theatre-lacriee.com/
Le Makeda,43.29326858393524, 5.39190767339256,https://www.lemakeda.com/
Le Cri du Port,43.30552899205118, 5.374053918258364,https://criduport.fr/
⁠L'Affranchi,43.304722, 5.398056, https://l-affranchi.com/
